NMEA,$GPGSV,3,1,11,02,28,308,32,08,52,300,34,10,55,024,38,18,11,096,24,1*63,1774106277998
NMEA,$GPGSV,3,2,11,23,20,046,24,27,74,227,29,32,56,132,37,36,00,000,38,1*60,1774106277998
NMEA,$GPGSV,3,3,11,40,00,000,34,41,00,000,41,49,00,000,36,1*5F,1774106277998
NMEA,$GPGSV,2,1,06,08,52,300,27,10,55,024,26,18,11,096,18,23,20,046,23,8*6D,1774106277998
NMEA,$GPGSV,2,2,06,27,74,227,33,32,56,132,30,8*6B,1774106277998
NMEA,$GLGSV,2,1,07,,00,000,34,66,55,188,37,79,06,280,22,88,60,040,37,1*7A,1774106277998
NMEA,$GLGSV,2,2,07,87,16,110,27,,00,000,28,72,13,028,13,1*47,1774106277998
NMEA,$GAGSV,3,1,10,02,27,278,29,04,40,072,31,06,48,108,30,09,43,145,28,7*72,1774106277998
NMEA,$GAGSV,3,2,10,10,31,074,27,11,52,046,26,12,11,086,29,25,25,218,26,7*7E,1774106277998
NMEA,$GAGSV,3,3,10,34,05,286,10,36,46,319,24,7*77,1774106277998
NMEA,$GAGSV,3,1,09,02,27,278,28,04,40,072,25,06,48,108,27,09,43,145,27,1*71,1774106277998
NMEA,$GAGSV,3,2,09,10,31,074,24,11,52,046,21,12,11,086,24,25,25,218,23,1*7C,1774106277998
NMEA,$GAGSV,3,3,09,36,46,319,21,1*43,1774106277998
NMEA,$GQGSV,1,1,01,05,00,000,37,1*55,1774106277998
NMEA,$GBGSV,3,1,11,60,30,115,38,48,00,000,43,47,00,000,28,35,42,318,29,1*7C,1774106277998
NMEA,$GBGSV,3,2,11,30,22,123,26,29,72,095,39,20,58,047,36,19,66,201,30,1*79,1774106277998
NMEA,$GBGSV,3,3,11,13,27,039,31,05,46,138,29,02,28,111,31,1*44,1774106277998
NMEA,$GBGSV,2,1,05,19,66,201,24,20,58,047,32,29,72,095,31,30,22,123,22,5*77,1774106277998
NMEA,$GBGSV,2,2,05,35,42,318,22,5*4D,1774106277998
NMEA,$GNGSA,A,3,02,08,10,18,23,27,32,,,,,,0.7,0.4,0.5,1*30,1774106278016
NMEA,$PSSGR,GSA,A,3,08,10,18,23,27,32,,,,,,,0.7,0.4,0.5,1,8*46,1774106278016
NMEA,$GNGSA,A,3,66,79,88,,,,,,,,,,0.7,0.4,0.5,2*3A,1774106278016
NMEA,$GNGSA,A,3,02,04,06,09,10,11,12,25,36,,,,0.7,0.4,0.5,3*3C,1774106278016
NMEA,$PSSGR,GSA,A,3,302,304,306,309,310,311,312,325,336,,,,0.7,0.4,0.5,3,1*72,1774106278016
NMEA,$GNGSA,A,3,02,05,13,19,20,29,30,35,60,,,,0.7,0.4,0.5,4*35,1774106278016
NMEA,$PSSGR,GSA,A,3,219,220,229,230,235,,,,,,,,0.7,0.4,0.5,4,5*7D,1774106278016
NMEA,$GNVTG,192.6,T,187.4,M,0.9,N,1.6,K,A*35,1774106278016
NMEA,$GNDTM,W84,,0000.000000,N,00000.000000,E,0.000,W84*41,1774106278016
NMEA,$GNRMC,151758.00,A,3210.125849,N,03448.794764,E,0.9,192.6,210326,5.2,E,A,V*5F,1774106278016
NMEA,$GNGNS,151758.00,3210.125849,N,03448.794764,E,AAAANN,28,0.4,21.1,19.1,,,V*1F,1774106278016
NMEA,$GNGGA,151758.00,3210.125849,N,03448.794764,E,1,12,0.4,21.1,M,19.1,M,,*46,1774106278016
NMEA,$PSMSG,magcal=PASS,bluesky=0*00,1774106278022
NMEA,$GPGSV,3,1,11,02,28,308,33,08,52,300,40,10,55,024,34,18,11,096,24,1*6D,1774106279000
NMEA,$GPGSV,3,2,11,23,20,046,22,27,74,227,30,32,56,132,37,36,00,000,40,1*61,1774106279000
NMEA,$GPGSV,3,3,11,40,00,000,34,41,00,000,41,49,00,000,35,1*5C,1774106279000
NMEA,$GPGSV,2,1,06,08,52,300,27,10,55,024,26,18,11,096,18,23,20,046,20,8*6E,1774106279000
NMEA,$GPGSV,2,2,06,27,74,227,34,32,56,132,25,8*68,1774106279000
NMEA,$GLGSV,2,1,07,,00,000,37,66,55,188,33,79,06,280,22,88,60,040,42,1*7F,1774106279000
NMEA,$GLGSV,2,2,07,87,16,110,21,,00,000,29,72,13,028,13,1*40,1774106279000
NMEA,$GAGSV,3,1,10,02,27,278,29,04,40,072,33,06,48,108,34,09,43,145,32,7*7F,1774106279000
NMEA,$GAGSV,3,2,10,10,31,074,32,11,52,046,30,12,11,086,18,25,25,218,31,7*79,1774106279000
NMEA,$GAGSV,3,3,10,34,05,286,10,36,46,319,26,7*75,1774106279000
NMEA,$GAGSV,3,1,09,02,27,278,29,04,40,072,21,06,48,108,25,09,43,145,25,1*74,1774106279000
NMEA,$GAGSV,3,2,09,10,31,074,21,11,52,046,24,12,11,086,24,25,25,218,23,1*7C,1774106279000
NMEA,$GAGSV,3,3,09,36,46,319,26,1*44,1774106279000
NMEA,$GQGSV,1,1,01,05,00,000,45,1*50,1774106279000
NMEA,$GBGSV,3,1,11,60,30,115,38,48,00,000,43,47,00,000,34,35,42,318,34,1*7D,1774106279000
NMEA,$GBGSV,3,2,11,30,22,123,26,29,72,095,43,20,58,047,36,19,66,201,29,1*7C,1774106279000
NMEA,$GBGSV,3,3,11,13,27,039,36,05,46,138,26,02,28,111,27,1*4B,1774106279000
NMEA,$GBGSV,2,1,05,19,66,201,27,20,58,047,32,29,72,095,31,30,22,123,22,5*74,1774106279000
NMEA,$GBGSV,2,2,05,35,42,318,25,5*4A,1774106279000
NMEA,$GNGSA,A,3,02,08,10,18,23,27,32,,,,,,0.7,0.5,0.6,1*32,1774106279013
NMEA,$PSSGR,GSA,A,3,08,10,18,23,27,32,,,,,,,0.7,0.5,0.6,1,8*44,1774106279013
NMEA,$GNGSA,A,3,66,79,88,,,,,,,,,,0.7,0.5,0.6,2*38,1774106279013
NMEA,$GNGSA,A,3,02,04,06,09,10,11,12,25,36,,,,0.7,0.5,0.6,3*3E,1774106279013
NMEA,$PSSGR,GSA,A,3,302,304,306,309,310,311,312,325,336,,,,0.7,0.5,0.6,3,1*70,1774106279013
NMEA,$GNGSA,A,3,02,05,13,19,20,29,30,35,60,,,,0.7,0.5,0.6,4*37,1774106279013
NMEA,$PSSGR,GSA,A,3,219,220,229,230,235,,,,,,,,0.7,0.5,0.6,4,5*7F,1774106279013
NMEA,$GNVTG,197.1,T,191.9,M,1.1,N,2.1,K,A*30,1774106279013
NMEA,$GNDTM,W84,,0000.000000,N,00000.000000,E,0.000,W84*41,1774106279013
NMEA,$GNRMC,151759.00,A,3210.125545,N,03448.794639,E,1.1,197.1,210326,5.2,E,A,V*5D,1774106279013
NMEA,$GNGNS,151759.00,3210.125545,N,03448.794639,E,AAAANN,28,0.5,21.0,19.1,,,V*16,1774106279013
NMEA,$GNGGA,151759.00,3210.125545,N,03448.794639,E,1,12,0.5,21.0,M,19.1,M,,*4F,1774106279013
NMEA,$PSMSG,magcal=PASS,bluesky=0*00,1774106279018
NMEA,$GPGSV,3,1,11,02,28,308,33,08,52,300,39,10,55,024,28,18,11,096,19,1*60,1774106279999
NMEA,$GPGSV,3,2,11,23,20,046,24,27,74,227,36,32,56,132,31,36,00,000,35,1*65,1774106279999
NMEA,$GPGSV,3,3,11,40,00,000,34,41,00,000,41,49,00,000,34,1*5D,1774106279999
NMEA,$GPGSV,2,1,06,08,52,300,26,10,55,024,28,18,11,096,18,23,20,046,20,8*61,1774106279999
NMEA,$GPGSV,2,2,06,27,74,227,34,32,56,132,30,8*6C,1774106279999
NMEA,$GLGSV,2,1,07,,00,000,37,66,55,188,35,79,06,280,31,88,60,040,40,1*79,1774106279999
NMEA,$GLGSV,2,2,07,87,16,110,21,,00,000,26,72,13,028,13,1*4F,1774106279999
NMEA,$GAGSV,3,1,10,02,27,278,32,04,40,072,30,06,48,108,34,09,43,145,22,7*77,1774106279999
NMEA,$GAGSV,3,2,10,10,31,074,30,11,52,046,31,12,11,086,21,25,25,218,24,7*74,1774106279999
NMEA,$GAGSV,3,3,10,34,05,286,10,36,46,319,31,7*73,1774106279999
NMEA,$GAGSV,3,1,09,02,27,278,26,04,40,072,23,06,48,108,26,09,43,145,22,1*7D,1774106279999
NMEA,$GAGSV,3,2,09,10,31,074,25,11,52,046,22,12,11,086,17,25,25,218,19,1*77,1774106279999
NMEA,$GAGSV,3,3,09,36,46,319,26,1*44,1774106279999
NMEA,$GQGSV,1,1,01,05,00,000,40,1*55,1774106279999
NMEA,$GBGSV,3,1,10,60,30,115,30,48,00,000,43,47,00,000,31,35,42,318,29,1*7D,1774106279999
NMEA,$GBGSV,3,2,10,29,72,095,43,20,58,047,41,19,66,201,30,13,27,039,36,1*7A,1774106279999
NMEA,$GBGSV,3,3,10,05,46,138,26,02,28,111,27,1*72,1774106279999
NMEA,$GBGSV,2,1,05,19,66,201,30,20,58,047,31,29,72,095,32,30,22,123,22,5*72,1774106279999
NMEA,$GBGSV,2,2,05,35,42,318,29,5*46,1774106279999
NMEA,$GNGSA,A,3,02,08,10,23,27,32,,,,,,,0.7,0.5,0.6,1*3B,1774106280012
NMEA,$PSSGR,GSA,A,3,08,10,23,27,32,,,,,,,,0.7,0.5,0.6,1,8*4D,1774106280012
NMEA,$GNGSA,A,3,66,79,88,,,,,,,,,,0.7,0.5,0.6,2*38,1774106280012
NMEA,$GNGSA,A,3,02,04,06,09,10,11,12,25,36,,,,0.7,0.5,0.6,3*3E,1774106280012
NMEA,$PSSGR,GSA,A,3,302,304,306,309,310,311,312,325,336,,,,0.7,0.5,0.6,3,1*70,1774106280012
NMEA,$GNGSA,A,3,02,05,13,19,20,29,30,35,60,,,,0.7,0.5,0.6,4*37,1774106280012
NMEA,$PSSGR,GSA,A,3,219,220,229,230,235,,,,,,,,0.7,0.5,0.6,4,5*7F,1774106280012
NMEA,$GNVTG,202.5,T,197.3,M,0.6,N,1.0,K,A*33,1774106280012
NMEA,$GNDTM,W84,,0000.000000,N,00000.000000,E,0.000,W84*41,1774106280012
NMEA,$GNRMC,151800.00,A,3210.125410,N,03448.794423,E,0.6,202.5,210326,5.2,E,A,V*5B,1774106280012
NMEA,$GNGNS,151800.00,3210.125410,N,03448.794423,E,AAAANN,27,0.5,20.4,19.1,,,V*17,1774106280012
NMEA,$GNGGA,151800.00,3210.125410,N,03448.794423,E,1,12,0.5,20.4,M,19.1,M,,*41,1774106280012
NMEA,$PSMSG,magcal=PASS,bluesky=0*00,1774106280019
NMEA,$GPGSV,3,1,11,02,28,308,34,08,52,300,38,10,55,024,25,18,11,096,25,1*64,1774106280999
NMEA,$GPGSV,3,2,11,23,20,046,23,27,74,227,39,32,56,132,29,36,00,000,35,1*64,1774106280999
NMEA,$GPGSV,3,3,11,40,00,000,34,41,00,000,41,49,00,000,36,1*5F,1774106280999
NMEA,$GPGSV,2,1,06,08,52,300,25,10,55,024,30,18,11,096,17,23,20,046,23,8*67,1774106280999
NMEA,$GPGSV,2,2,06,27,74,227,33,32,56,132,28,8*62,1774106280999
NMEA,$GLGSV,2,1,07,,00,000,38,66,55,188,36,79,06,280,32,88,60,040,42,1*74,1774106280999
NMEA,$GLGSV,2,2,07,87,16,110,21,,00,000,26,72,13,028,13,1*4F,1774106280999
NMEA,$GAGSV,3,1,09,02,27,278,29,04,40,072,33,06,48,108,37,09,43,145,21,7*76,1774106280999
NMEA,$GAGSV,3,2,09,10,31,074,33,11,52,046,26,12,11,086,22,25,25,218,23,7*7D,1774106280999
NMEA,$GAGSV,3,3,09,36,46,319,32,7*47,1774106280999
NMEA,$GAGSV,3,1,09,02,27,278,26,04,40,072,23,06,48,108,26,09,43,145,22,1*7D,1774106280999
NMEA,$GAGSV,3,2,09,10,31,074,22,11,52,046,23,12,11,086,17,25,25,218,21,1*7A,1774106280999
NMEA,$GAGSV,3,3,09,36,46,319,21,1*43,1774106280999
NMEA,$GQGSV,1,1,01,05,00,000,41,1*54,1774106280999
NMEA,$GBGSV,3,1,10,60,30,115,30,48,00,000,42,47,00,000,31,35,42,318,27,1*72,1774106280999
NMEA,$GBGSV,3,2,10,29,72,095,42,20,58,047,42,19,66,201,30,13,27,039,30,1*7E,1774106280999
NMEA,$GBGSV,3,3,10,05,46,138,26,02,28,111,27,1*72,1774106280999
NMEA,$GBGSV,2,1,05,19,66,201,29,20,58,047,29,29,72,095,30,30,22,123,22,5*71,1774106280999
NMEA,$GBGSV,2,2,05,35,42,318,29,5*46,1774106280999
NMEA,$GNGSA,A,3,02,08,10,23,27,32,,,,,,,0.7,0.5,0.6,1*3B,1774106281016
NMEA,$PSSGR,GSA,A,3,08,10,23,27,32,,,,,,,,0.7,0.5,0.6,1,8*4D,1774106281016
NMEA,$GNGSA,A,3,66,79,88,,,,,,,,,,0.7,0.5,0.6,2*38,1774106281016
NMEA,$GNGSA,A,3,02,04,06,09,10,11,12,25,36,,,,0.7,0.5,0.6,3*3E,1774106281016
NMEA,$PSSGR,GSA,A,3,302,304,306,309,310,311,312,325,336,,,,0.7,0.5,0.6,3,1*70,1774106281016
NMEA,$GNGSA,A,3,02,05,13,19,20,29,30,35,60,,,,0.7,0.5,0.6,4*37,1774106281016
NMEA,$PSSGR,GSA,A,3,219,220,229,230,235,,,,,,,,0.7,0.5,0.6,4,5*7F,1774106281016
NMEA,$GNVTG,,T,,M,0.0,N,0.0,K,A*3D,1774106281016
NMEA,$GNDTM,W84,,0000.000000,N,00000.000000,E,0.000,W84*41,1774106281016
NMEA,$GNRMC,151801.00,A,3210.125467,N,03448.794227,E,0.0,,210326,5.2,E,A,V*75,1774106281016
NMEA,$GNGNS,151801.00,3210.125467,N,03448.794227,E,AAAANN,27,0.5,20.5,19.1,,,V*15,1774106281016
NMEA,$GNGGA,151801.00,3210.125467,N,03448.794227,E,1,12,0.5,20.5,M,19.1,M,,*43,1774106281016
NMEA,$PSMSG,magcal=PASS,bluesky=0*00,1774106281025
NMEA,$GPGSV,3,1,11,02,28,308,30,08,52,300,37,10,55,024,30,18,11,096,25,1*6B,1774106282001
NMEA,$GPGSV,3,2,11,23,20,046,25,27,74,227,36,32,56,132,30,36,00,000,35,1*65,1774106282001
NMEA,$GPGSV,3,3,11,40,00,000,34,41,00,000,41,49,00,000,36,1*5F,1774106282001
NMEA,$GPGSV,2,1,06,08,52,300,26,10,55,024,26,18,11,096,17,23,20,046,22,8*62,1774106282001
NMEA,$GPGSV,2,2,06,27,74,227,33,32,56,132,28,8*62,1774106282001
NMEA,$GLGSV,2,1,07,,00,000,36,66,55,188,35,79,06,280,29,88,60,040,38,1*7E,1774106282001
NMEA,$GLGSV,2,2,07,87,16,110,21,,00,000,29,72,13,028,13,1*40,1774106282001
NMEA,$GAGSV,3,1,09,02,27,278,29,04,40,072,31,06,48,108,33,09,43,145,21,7*70,1774106282001
NMEA,$GAGSV,3,2,09,10,31,074,31,11,52,046,28,12,11,086,22,25,25,218,23,7*71,1774106282001
NMEA,$GAGSV,3,3,09,36,46,319,30,7*45,1774106282001
NMEA,$GAGSV,3,1,09,02,27,278,26,04,40,072,23,06,48,108,21,09,43,145,23,1*7B,1774106282001
NMEA,$GAGSV,3,2,09,10,31,074,22,11,52,046,23,12,11,086,17,25,25,218,21,1*7A,1774106282001
NMEA,$GAGSV,3,3,09,36,46,319,22,1*40,1774106282001
NMEA,$GQGSV,1,1,01,05,00,000,39,1*5B,1774106282001
NMEA,$GBGSV,3,1,12,60,30,115,30,48,00,000,42,47,00,000,29,35,42,318,29,1*77,1774106282001
NMEA,$GBGSV,3,2,12,30,22,123,24,29,72,095,42,20,58,047,40,19,66,201,28,1*7C,1774106282001
NMEA,$GBGSV,3,3,12,13,27,039,34,08,16,040,19,05,46,138,25,02,28,111,27,1*7A,1774106282001
NMEA,$GBGSV,2,1,05,19,66,201,30,20,58,047,30,29,72,095,30,30,22,123,22,5*71,1774106282001
NMEA,$GBGSV,2,2,05,35,42,318,28,5*47,1774106282001
NMEA,$GNGSA,A,3,02,08,10,23,27,32,,,,,,,0.8,0.5,0.6,1*34,1774106282017
NMEA,$PSSGR,GSA,A,3,08,10,23,27,32,,,,,,,,0.8,0.5,0.6,1,8*42,1774106282017
NMEA,$GNGSA,A,3,66,79,88,,,,,,,,,,0.8,0.5,0.6,2*37,1774106282017
NMEA,$GNGSA,A,3,02,04,06,09,10,11,25,36,,,,,0.8,0.5,0.6,3*32,1774106282017
NMEA,$PSSGR,GSA,A,3,302,304,306,309,310,311,325,336,,,,,0.8,0.5,0.6,3,1*4F,1774106282017
NMEA,$GNGSA,A,3,02,05,13,19,20,29,30,35,60,,,,0.8,0.5,0.6,4*38,1774106282017
NMEA,$PSSGR,GSA,A,3,219,220,229,235,,,,,,,,,0.8,0.5,0.6,4,5*41,1774106282017
NMEA,$GNVTG,2.7,T,357.5,M,0.6,N,1.1,K,A*3A,1774106282017
NMEA,$GNDTM,W84,,0000.000000,N,00000.000000,E,0.000,W84*41,1774106282017
NMEA,$GNRMC,151802.00,A,3210.125573,N,03448.794102,E,0.6,2.7,210326,5.2,E,A,V*5B,1774106282017
NMEA,$GNGNS,151802.00,3210.125573,N,03448.794102,E,AAAANN,26,0.5,20.1,19.1,,,V*13,1774106282017
NMEA,$GNGGA,151802.00,3210.125573,N,03448.794102,E,1,12,0.5,20.1,M,19.1,M,,*44,1774106282017
NMEA,$PSMSG,magcal=PASS,bluesky=0*00,1774106282022
NMEA,$GPGSV,3,1,11,02,28,308,35,08,52,300,39,10,55,024,36,18,11,096,22,1*61,1774106283002
NMEA,$GPGSV,3,2,11,23,20,046,28,27,74,227,37,32,56,132,32,36,00,000,40,1*69,1774106283002
NMEA,$GPGSV,3,3,11,40,00,000,34,41,00,000,41,49,00,000,36,1*5F,1774106283002
NMEA,$GPGSV,2,1,06,08,52,300,28,10,55,024,28,18,11,096,17,23,20,046,22,8*62,1774106283002
NMEA,$GPGSV,2,2,06,27,74,227,35,32,56,132,29,8*65,1774106283002
NMEA,$GLGSV,2,1,07,,00,000,32,66,55,188,36,79,06,280,29,88,60,040,39,1*78,1774106283002
NMEA,$GLGSV,2,2,07,87,16,110,18,,00,000,31,72,13,028,13,1*43,1774106283002
NMEA,$GAGSV,3,1,09,02,27,278,33,04,40,072,33,06,48,108,34,09,43,145,30,7*7E,1774106283002
NMEA,$GAGSV,3,2,09,10,31,074,27,11,52,046,29,12,11,086,21,25,25,218,23,7*74,1774106283002
NMEA,$GAGSV,3,3,09,36,46,319,31,7*44,1774106283002
NMEA,$GAGSV,3,1,09,02,27,278,24,04,40,072,19,06,48,108,22,09,43,145,24,1*74,1774106283002
NMEA,$GAGSV,3,2,09,10,31,074,25,11,52,046,26,12,11,086,17,25,25,218,21,1*78,1774106283002
NMEA,$GAGSV,3,3,09,36,46,319,22,1*40,1774106283002
NMEA,$GQGSV,1,1,01,05,00,000,39,1*5B,1774106283002
NMEA,$GBGSV,3,1,12,60,30,115,29,48,00,000,42,47,00,000,35,35,42,318,35,1*7F,1774106283002
NMEA,$GBGSV,3,2,12,30,22,123,24,29,72,095,42,20,58,047,41,19,66,201,31,1*75,1774106283002
NMEA,$GBGSV,3,3,12,13,27,039,33,08,16,040,19,05,46,138,25,02,28,111,27,1*7D,1774106283002
NMEA,$GBGSV,2,1,05,19,66,201,29,20,58,047,31,29,72,095,29,30,22,123,22,5*70,1774106283002
NMEA,$GBGSV,2,2,05,35,42,318,29,5*46,1774106283002
NMEA,$GNGSA,A,3,02,08,10,23,27,32,,,,,,,0.8,0.5,0.6,1*34,1774106283015
NMEA,$PSSGR,GSA,A,3,08,10,23,27,32,,,,,,,,0.8,0.5,0.6,1,8*42,1774106283015
NMEA,$GNGSA,A,3,66,79,88,,,,,,,,,,0.8,0.5,0.6,2*37,1774106283015
NMEA,$GNGSA,A,3,02,04,06,09,10,11,25,36,,,,,0.8,0.5,0.6,3*32,1774106283015
NMEA,$PSSGR,GSA,A,3,302,304,306,309,310,311,325,336,,,,,0.8,0.5,0.6,3,1*4F,1774106283015
NMEA,$GNGSA,A,3,02,05,13,19,20,29,35,60,,,,,0.8,0.5,0.6,4*3B,1774106283015
NMEA,$PSSGR,GSA,A,3,219,220,229,235,,,,,,,,,0.8,0.5,0.6,4,5*41,1774106283015
NMEA,$GNVTG,351.8,T,346.6,M,1.4,N,2.6,K,A*34,1774106283015
NMEA,$GNDTM,W84,,0000.000000,N,00000.000000,E,0.000,W84*41,1774106283015
NMEA,$GNRMC,151803.00,A,3210.126004,N,03448.793959,E,1.4,351.8,210326,5.2,E,A,V*54,1774106283015
NMEA,$GNGNS,151803.00,3210.126004,N,03448.793959,E,AAAANN,25,0.5,19.5,19.1,,,V*18,1774106283015
NMEA,$GNGGA,151803.00,3210.126004,N,03448.793959,E,1,12,0.5,19.5,M,19.1,M,,*4C,1774106283015
NMEA,$PSMSG,magcal=PASS,bluesky=0*00,1774106283024
NMEA,$GPGSV,3,1,11,02,28,308,32,08,52,300,39,10,55,024,35,18,11,096,23,1*64,1774106284001
NMEA,$GPGSV,3,2,11,23,20,046,26,27,74,227,36,32,56,132,37,36,00,000,40,1*63,1774106284001
NMEA,$GPGSV,3,3,11,40,00,000,34,41,00,000,41,49,00,000,36,1*5F,1774106284001
NMEA,$GPGSV,2,1,06,08,52,300,29,10,55,024,24,18,11,096,17,23,20,046,22,8*6F,1774106284001
NMEA,$GPGSV,2,2,06,27,74,227,33,32,56,132,22,8*68,1774106284001
NMEA,$GLGSV,2,1,07,,00,000,35,66,55,188,38,79,06,280,24,88,60,040,27,1*73,1774106284001
NMEA,$GLGSV,2,2,07,87,16,110,23,,00,000,26,72,13,028,13,1*4D,1774106284001
NMEA,$GAGSV,3,1,09,02,27,278,35,04,40,072,32,06,48,108,38,09,43,145,26,7*72,1774106284001
NMEA,$GAGSV,3,2,09,10,31,074,33,11,52,046,28,12,11,086,24,25,25,218,32,7*75,1774106284001
NMEA,$GAGSV,3,3,09,36,46,319,32,7*47,1774106284001
NMEA,$GAGSV,3,1,09,02,27,278,28,04,40,072,24,06,48,108,27,09,43,145,21,1*76,1774106284001
NMEA,$GAGSV,3,2,09,10,31,074,26,11,52,046,26,12,11,086,18,25,25,218,28,1*7D,1774106284001
NMEA,$GAGSV,3,3,09,36,46,319,27,1*45,1774106284001
NMEA,$GQGSV,1,1,01,05,00,000,43,1*56,1774106284001
NMEA,$GBGSV,3,1,12,60,30,115,29,48,00,000,39,47,00,000,37,35,42,318,37,1*73,1774106284001
NMEA,$GBGSV,3,2,12,30,22,123,26,29,72,095,41,20,58,047,37,19,66,201,36,1*72,1774106284001
NMEA,$GBGSV,3,3,12,13,27,039,25,08,16,040,19,05,46,138,25,02,28,111,24,1*79,1774106284001
NMEA,$GBGSV,2,1,05,19,66,201,33,20,58,047,26,29,72,095,28,30,22,123,22,5*7C,1774106284001
NMEA,$GBGSV,2,2,05,35,42,318,25,5*4A,1774106284001
NMEA,$GNGSA,A,3,02,08,10,23,27,32,,,,,,,0.8,0.5,0.6,1*34,1774106284015
NMEA,$PSSGR,GSA,A,3,08,10,23,27,32,,,,,,,,0.8,0.5,0.6,1,8*42,1774106284015
NMEA,$GNGSA,A,3,66,79,88,,,,,,,,,,0.8,0.5,0.6,2*37,1774106284015
NMEA,$GNGSA,A,3,02,04,06,09,10,11,25,36,,,,,0.8,0.5,0.6,3*32,1774106284015
NMEA,$PSSGR,GSA,A,3,302,304,306,309,310,311,325,336,,,,,0.8,0.5,0.6,3,1*4F,1774106284015
NMEA,$GNGSA,A,3,02,05,13,19,20,29,30,35,60,,,,0.8,0.5,0.6,4*38,1774106284015
NMEA,$PSSGR,GSA,A,3,219,220,229,235,,,,,,,,,0.8,0.5,0.6,4,5*41,1774106284015
NMEA,$GNVTG,349.5,T,344.3,M,1.9,N,3.5,K,A*38,1774106284015
NMEA,$GNDTM,W84,,0000.000000,N,00000.000000,E,0.000,W84*41,1774106284015
NMEA,$GNRMC,151804.00,A,3210.126561,N,03448.793780,E,1.9,349.5,210326,5.2,E,A,V*56,1774106284015
NMEA,$GNGNS,151804.00,3210.126561,N,03448.793780,E,AAAANN,26,0.5,19.9,19.1,,,V*1C,1774106284015
NMEA,$GNGGA,151804.00,3210.126561,N,03448.793780,E,1,12,0.5,19.9,M,19.1,M,,*4B,1774106284015
NMEA,$PSMSG,magcal=PASS,bluesky=0*00,1774106284021
NMEA,$GPGSV,3,1,11,02,28,308,26,08,52,300,38,10,55,024,36,18,11,096,23,1*63,1774106284999
NMEA,$GPGSV,3,2,11,23,20,046,23,27,74,227,38,32,56,132,40,36,00,000,40,1*68,1774106284999
NMEA,$GPGSV,3,3,11,40,00,000,34,41,00,000,41,49,00,000,36,1*5F,1774106284999
NMEA,$GPGSV,2,1,06,08,52,300,34,10,55,024,28,18,11,096,16,23,20,046,17,8*68,1774106284999
NMEA,$GPGSV,2,2,06,27,74,227,33,32,56,132,27,8*6D,1774106284999
NMEA,$GLGSV,2,1,07,,00,000,33,66,55,188,38,79,06,280,23,88,60,040,29,1*7C,1774106284999
NMEA,$GLGSV,2,2,07,87,16,110,26,,00,000,28,72,13,028,13,1*46,1774106284999
NMEA,$GAGSV,3,1,09,02,27,278,35,04,40,072,31,06,48,108,33,09,43,145,29,7*75,1774106284999
NMEA,$GAGSV,3,2,09,10,31,074,32,11,52,046,26,12,11,086,28,25,25,218,33,7*77,1774106284999
NMEA,$GAGSV,3,3,09,36,46,319,37,7*42,1774106284999
NMEA,$GAGSV,3,1,09,02,27,278,28,04,40,072,24,06,48,108,24,09,43,145,21,1*75,1774106284999
NMEA,$GAGSV,3,2,09,10,31,074,24,11,52,046,24,12,11,086,26,25,25,218,31,1*78,1774106284999
NMEA,$GAGSV,3,3,09,36,46,319,26,1*44,1774106284999
NMEA,$GQGSV,1,1,01,05,00,000,38,1*5A,1774106284999
NMEA,$GBGSV,3,1,12,60,30,115,33,48,00,000,38,47,00,000,38,35,42,318,38,1*79,1774106284999
NMEA,$GBGSV,3,2,12,30,22,123,26,29,72,095,40,20,58,047,30,19,66,201,36,1*74,1774106284999
NMEA,$GBGSV,3,3,12,13,27,039,26,08,16,040,19,05,46,138,29,02,28,111,24,1*76,1774106284999
NMEA,$GBGSV,2,1,05,19,66,201,34,20,58,047,24,29,72,095,23,30,22,123,22,5*72,1774106284999
NMEA,$GBGSV,2,2,05,35,42,318,25,5*4A,1774106284999
NMEA,$GNGSA,A,3,02,08,10,23,27,32,,,,,,,0.7,0.5,0.6,1*3B,1774106285014
NMEA,$PSSGR,GSA,A,3,08,10,23,27,32,,,,,,,,0.7,0.5,0.6,1,8*4D,1774106285014
NMEA,$GNGSA,A,3,66,79,88,,,,,,,,,,0.7,0.5,0.6,2*38,1774106285014
NMEA,$GNGSA,A,3,02,04,06,09,10,11,12,25,36,,,,0.7,0.5,0.6,3*3E,1774106285014
NMEA,$PSSGR,GSA,A,3,302,304,306,309,310,311,312,325,336,,,,0.7,0.5,0.6,3,1*70,1774106285014
NMEA,$GNGSA,A,3,05,13,19,20,29,30,35,60,,,,,0.7,0.5,0.6,4*35,1774106285014
NMEA,$PSSGR,GSA,A,3,219,220,229,235,,,,,,,,,0.7,0.5,0.6,4,5*4E,1774106285014
NMEA,$GNVTG,356.8,T,351.6,M,1.9,N,3.6,K,A*39,1774106285014
NMEA,$GNDTM,W84,,0000.000000,N,00000.000000,E,0.000,W84*41,1774106285014
NMEA,$GNRMC,151805.00,A,3210.127144,N,03448.793656,E,1.9,356.8,210326,5.2,E,A,V*5C,1774106285014
NMEA,$GNGNS,151805.00,3210.127144,N,03448.793656,E,AAAANN,26,0.5,20.1,19.1,,,V*17,1774106285014
NMEA,$GNGGA,151805.00,3210.127144,N,03448.793656,E,1,12,0.5,20.1,M,19.1,M,,*40,1774106285014
NMEA,$PSMSG,magcal=PASS,bluesky=0*00,1774106285020
NMEA,$GPGSV,3,1,12,02,28,308,29,08,52,300,44,10,55,024,37,16,17,212,33,1*62,1774106285999
NMEA,$GPGSV,3,2,12,18,11,096,23,23,20,046,24,27,74,227,42,32,56,132,44,1*63,1774106285999
NMEA,$GPGSV,3,3,12,36,00,000,41,40,00,000,34,41,00,000,41,49,00,000,36,1*6C,1774106285999
NMEA,$GPGSV,2,1,06,08,52,300,36,10,55,024,29,18,11,096,16,23,20,046,17,8*6B,1774106285999
NMEA,$GPGSV,2,2,06,27,74,227,32,32,56,132,31,8*6B,1774106285999
NMEA,$GLGSV,2,1,07,,00,000,43,66,55,188,40,79,06,280,24,88,60,040,37,1*7C,1774106285999
NMEA,$GLGSV,2,2,07,87,16,110,30,,00,000,26,72,13,028,13,1*4F,1774106285999
NMEA,$GAGSV,3,1,09,02,27,278,31,04,40,072,29,06,48,108,30,09,43,145,36,7*75,1774106285999
NMEA,$GAGSV,3,2,09,10,31,074,31,11,52,046,26,12,11,086,22,25,25,218,34,7*79,1774106285999
NMEA,$GAGSV,3,3,09,36,46,319,38,7*4D,1774106285999
NMEA,$GAGSV,3,1,09,02,27,278,24,04,40,072,24,06,48,108,24,09,43,145,22,1*7A,1774106285999
NMEA,$GAGSV,3,2,09,10,31,074,24,11,52,046,24,12,11,086,25,25,25,218,29,1*72,1774106285999
NMEA,$GAGSV,3,3,09,36,46,319,23,1*41,1774106285999
NMEA,$GQGSV,1,1,01,05,00,000,41,1*54,1774106285999
NMEA,$GBGSV,3,1,11,60,30,115,33,48,00,000,36,47,00,000,32,35,42,318,43,1*72,1774106285999
NMEA,$GBGSV,3,2,11,30,22,123,29,29,72,095,41,20,58,047,32,19,66,201,28,1*74,1774106285999
NMEA,$GBGSV,3,3,11,08,16,040,19,05,46,138,34,02,28,111,24,1*40,1774106285999
NMEA,$GBGSV,2,1,05,19,66,201,35,20,58,047,26,29,72,095,23,30,22,123,22,5*71,1774106285999
NMEA,$GBGSV,2,2,05,35,42,318,23,5*4C,1774106285999
NMEA,$GNGSA,A,3,02,08,10,16,23,27,32,,,,,,0.7,0.4,0.6,1*3D,1774106286013
NMEA,$PSSGR,GSA,A,3,08,10,23,27,32,,,,,,,,0.7,0.4,0.6,1,8*4C,1774106286013
NMEA,$GNGSA,A,3,66,79,88,,,,,,,,,,0.7,0.4,0.6,2*39,1774106286013
NMEA,$GNGSA,A,3,02,04,06,09,10,11,12,25,36,,,,0.7,0.4,0.6,3*3F,1774106286013
NMEA,$PSSGR,GSA,A,3,302,304,306,309,310,311,312,325,336,,,,0.7,0.4,0.6,3,1*71,1774106286013
NMEA,$GNGSA,A,3,05,13,19,20,29,30,35,60,,,,,0.7,0.4,0.6,4*34,1774106286013
NMEA,$PSSGR,GSA,A,3,219,220,229,235,,,,,,,,,0.7,0.4,0.6,4,5*4F,1774106286013
NMEA,$GNVTG,7.6,T,2.4,M,1.5,N,2.7,K,A*3B,1774106286013
NMEA,$GNDTM,W84,,0000.000000,N,00000.000000,E,0.000,W84*41,1774106286013
NMEA,$GNRMC,151806.00,A,3210.127603,N,03448.793626,E,1.5,7.6,210326,5.2,E,A,V*59,1774106286013
NMEA,$GNGNS,151806.00,3210.127603,N,03448.793626,E,AAAANN,27,0.4,20.0,19.1,,,V*16,1774106286013
NMEA,$GNGGA,151806.00,3210.127603,N,03448.793626,E,1,12,0.4,20.0,M,19.1,M,,*40,1774106286013
NMEA,$PSMSG,magcal=PASS,bluesky=0*00,1774106286024
NMEA,$GPGSV,3,1,12,02,28,308,29,08,52,300,45,10,55,024,38,16,17,212,33,1*6C,1774106287002
NMEA,$GPGSV,3,2,12,18,11,096,23,23,20,046,23,27,74,227,44,32,56,132,43,1*65,1774106287002
NMEA,$GPGSV,3,3,12,36,00,000,40,40,00,000,34,41,00,000,41,49,00,000,39,1*62,1774106287002
NMEA,$GPGSV,2,1,06,08,52,300,36,10,55,024,23,18,11,096,16,23,20,046,17,8*61,1774106287002
NMEA,$GPGSV,2,2,06,27,74,227,34,32,56,132,33,8*6F,1774106287002
NMEA,$GLGSV,2,1,07,,00,000,37,66,56,188,37,79,06,280,24,88,60,040,36,1*7D,1774106287002
NMEA,$GLGSV,2,2,07,87,16,110,29,,00,000,24,72,13,028,13,1*45,1774106287002
NMEA,$GAGSV,3,1,10,02,27,278,35,04,40,072,23,06,48,108,29,09,43,145,38,7*75,1774106287002
NMEA,$GAGSV,3,2,10,10,31,074,27,11,52,046,28,12,11,086,22,25,25,218,35,7*79,1774106287002
NMEA,$GAGSV,3,3,10,34,05,286,20,36,46,319,39,7*78,1774106287002
NMEA,$GAGSV,3,1,09,02,27,278,31,04,40,072,24,06,48,108,24,09,43,145,22,1*7E,1774106287002
NMEA,$GAGSV,3,2,09,10,31,074,24,11,52,046,24,12,11,086,22,25,25,218,30,1*7D,1774106287002
NMEA,$GAGSV,3,3,09,36,46,319,30,1*43,1774106287002
NMEA,$GQGSV,1,1,01,05,00,000,39,1*5B,1774106287002
NMEA,$GBGSV,3,1,11,60,30,115,33,48,00,000,38,47,00,000,32,35,42,318,44,1*7B,1774106287002
NMEA,$GBGSV,3,2,11,30,22,123,33,29,72,095,38,20,58,047,35,19,66,201,27,1*79,1774106287002
NMEA,$GBGSV,3,3,11,08,16,040,19,05,46,138,34,02,28,111,29,1*4D,1774106287002
NMEA,$GBGSV,2,1,05,19,66,201,36,20,58,047,28,29,72,095,21,30,22,123,22,5*7E,1774106287002
NMEA,$GBGSV,2,2,05,35,42,318,29,5*46,1774106287002
NMEA,$GNGSA,A,3,02,08,10,16,23,27,32,,,,,,0.7,0.4,0.6,1*3D,1774106287015
NMEA,$PSSGR,GSA,A,3,08,10,23,27,32,,,,,,,,0.7,0.4,0.6,1,8*4C,1774106287015
NMEA,$GNGSA,A,3,66,79,88,,,,,,,,,,0.7,0.4,0.6,2*39,1774106287015
NMEA,$GNGSA,A,3,02,04,06,09,10,11,12,25,36,,,,0.7,0.4,0.6,3*3F,1774106287015
NMEA,$PSSGR,GSA,A,3,302,304,306,309,310,311,312,325,336,,,,0.7,0.4,0.6,3,1*71,1774106287015
NMEA,$GNGSA,A,3,02,05,13,19,20,29,30,35,60,,,,0.7,0.4,0.6,4*36,1774106287015
NMEA,$PSSGR,GSA,A,3,219,220,229,235,,,,,,,,,0.7,0.4,0.6,4,5*4F,1774106287015
NMEA,$GNVTG,19.0,T,13.8,M,1.2,N,2.2,K,A*3C,1774106287015
NMEA,$GNDTM,W84,,0000.000000,N,00000.000000,E,0.000,W84*41,1774106287015
NMEA,$GNRMC,151807.00,A,3210.127975,N,03448.793679,E,1.2,19.0,210326,5.2,E,A,V*62,1774106287015
NMEA,$GNGNS,151807.00,3210.127975,N,03448.793679,E,AAAANN,28,0.4,19.8,19.1,,,V*1E,1774106287015
NMEA,$GNGGA,151807.00,3210.127975,N,03448.793679,E,1,12,0.4,19.8,M,19.1,M,,*47,1774106287015
NMEA,$PSMSG,magcal=PASS,bluesky=0*00,1774106287020
NMEA,$GPGSV,3,1,12,02,28,308,28,08,52,300,44,10,55,024,38,16,17,212,32,1*6D,1774106287999
NMEA,$GPGSV,3,2,12,18,11,096,19,23,20,046,23,27,74,227,42,32,56,132,36,1*68,1774106287999
NMEA,$GPGSV,3,3,12,36,00,000,43,40,00,000,34,41,00,000,41,49,00,000,39,1*61,1774106287999
NMEA,$GPGSV,2,1,06,08,52,300,37,10,55,024,23,18,11,096,16,23,20,046,17,8*60,1774106287999
NMEA,$GPGSV,2,2,06,27,74,227,34,32,56,132,32,8*6E,1774106287999
NMEA,$GLGSV,2,1,07,,00,000,28,66,56,188,31,79,06,280,24,88,60,040,30,1*73,1774106287999
NMEA,$GLGSV,2,2,07,87,16,110,23,,00,000,24,72,13,028,13,1*4F,1774106287999
NMEA,$GAGSV,3,1,10,02,27,278,40,04,40,072,26,06,48,108,30,09,43,145,35,7*77,1774106287999
NMEA,$GAGSV,3,2,10,10,31,074,24,11,52,046,29,12,11,086,22,25,25,218,33,7*7D,1774106287999
NMEA,$GAGSV,3,3,10,34,05,286,20,36,46,319,39,7*78,1774106287999
NMEA,$GAGSV,3,1,10,02,27,278,31,04,40,072,24,06,48,108,29,09,43,145,20,1*79,1774106287999
NMEA,$GAGSV,3,2,10,10,31,074,19,11,52,046,24,12,11,086,22,25,25,218,31,1*7A,1774106287999
NMEA,$GAGSV,3,3,10,34,05,286,16,36,46,319,31,1*73,1774106287999
NMEA,$GQGSV,1,1,01,05,00,000,36,1*54,1774106287999
NMEA,$GBGSV,3,1,11,60,30,115,32,48,00,000,37,47,00,000,27,35,42,318,45,1*70,1774106287999
NMEA,$GBGSV,3,2,11,30,22,123,33,29,72,095,36,20,58,047,34,19,66,201,30,1*70,1774106287999
NMEA,$GBGSV,3,3,11,08,16,040,19,05,46,138,34,02,28,111,29,1*4D,1774106287999
NMEA,$GBGSV,2,1,05,19,66,201,36,20,58,047,30,29,72,095,22,30,22,123,17,5*72,1774106287999
NMEA,$GBGSV,2,2,05,35,42,318,29,5*46,1774106287999
NMEA,$GNGSA,A,3,02,08,10,16,23,27,32,,,,,,0.7,0.4,0.6,1*3D,1774106288013
NMEA,$PSSGR,GSA,A,3,08,10,27,32,,,,,,,,,0.7,0.4,0.6,1,8*4D,1774106288013
NMEA,$GNGSA,A,3,66,79,88,,,,,,,,,,0.7,0.4,0.6,2*39,1774106288013
NMEA,$GNGSA,A,3,02,04,06,09,10,11,12,25,36,,,,0.7,0.4,0.6,3*3F,1774106288013
NMEA,$PSSGR,GSA,A,3,302,304,306,309,310,311,312,325,336,,,,0.7,0.4,0.6,3,1*71,1774106288013
NMEA,$GNGSA,A,3,02,05,13,19,20,29,30,35,60,,,,0.7,0.4,0.6,4*36,1774106288013
NMEA,$PSSGR,GSA,A,3,219,220,229,235,,,,,,,,,0.7,0.4,0.6,4,5*4F,1774106288013
NMEA,$GNVTG,,T,,M,0.0,N,0.0,K,A*3D,1774106288013
NMEA,$GNDTM,W84,,0000.000000,N,00000.000000,E,0.000,W84*41,1774106288013
NMEA,$GNRMC,151808.00,A,3210.128042,N,03448.793618,E,0.0,,210326,5.2,E,A,V*7D,1774106288013
NMEA,$GNGNS,151808.00,3210.128042,N,03448.793618,E,AAAANN,28,0.4,19.9,19.1,,,V*15,1774106288013
NMEA,$GNGGA,151808.00,3210.128042,N,03448.793618,E,1,12,0.4,19.9,M,19.1,M,,*4C,1774106288013
NMEA,$PSMSG,magcal=PASS,bluesky=0*00,1774106288021
NMEA,$GPGSV,3,1,12,02,28,308,25,08,52,300,40,10,55,024,29,16,17,212,28,1*6F,1774106288998
NMEA,$GPGSV,3,2,12,18,11,096,19,23,20,046,23,27,74,227,38,32,56,132,31,1*62,1774106288998
NMEA,$GPGSV,3,3,12,36,00,000,38,40,00,000,34,41,00,000,41,49,00,000,39,1*6D,1774106288998
NMEA,$GPGSV,2,1,06,08,52,300,35,10,55,024,19,18,11,096,16,23,20,046,17,8*6B,1774106288998
NMEA,$GPGSV,2,2,06,27,74,227,33,32,56,132,30,8*6B,1774106288998
NMEA,$GLGSV,2,1,07,,00,000,34,66,56,188,33,79,06,280,24,88,60,040,28,1*75,1774106288998
NMEA,$GLGSV,2,2,07,87,16,110,23,,00,000,21,72,13,028,13,1*4A,1774106288998
NMEA,$GAGSV,3,1,10,02,27,278,34,04,40,072,23,06,48,108,28,09,43,145,31,7*7C,1774106288998
NMEA,$GAGSV,3,2,10,10,31,074,24,11,52,046,26,12,11,086,18,25,25,218,30,7*78,1774106288998
NMEA,$GAGSV,3,3,10,34,05,286,20,36,46,319,36,7*77,1774106288998
NMEA,$GAGSV,3,1,10,02,27,278,30,04,40,072,20,06,48,108,30,09,43,145,20,1*74,1774106288998
NMEA,$GAGSV,3,2,10,10,31,074,19,11,52,046,18,12,11,086,22,25,25,218,28,1*7D,1774106288998
NMEA,$GAGSV,3,3,10,34,05,286,16,36,46,319,29,1*7A,1774106288998
NMEA,$GQGSV,1,1,01,05,00,000,36,1*54,1774106288998
NMEA,$GBGSV,3,1,11,60,30,115,32,48,00,000,32,47,00,000,27,35,42,318,41,1*71,1774106288998
NMEA,$GBGSV,3,2,11,30,22,123,30,29,72,095,34,20,58,047,29,19,66,201,29,1*75,1774106288998
NMEA,$GBGSV,3,3,11,08,16,040,19,05,46,138,29,02,28,111,29,1*41,1774106288998
NMEA,$GBGSV,2,1,05,19,66,201,34,20,58,047,29,29,72,095,21,30,22,123,22,5*7D,1774106288998
NMEA,$GBGSV,2,2,05,35,42,318,29,5*46,1774106288998
NMEA,$GNGSA,A,3,02,08,10,16,23,27,32,,,,,,0.8,0.4,0.6,1*32,1774106289008
NMEA,$PSSGR,GSA,A,3,08,10,27,32,,,,,,,,,0.8,0.4,0.6,1,8*42,1774106289008
NMEA,$GNGSA,A,3,66,88,,,,,,,,,,,0.8,0.4,0.6,2*38,1774106289008
NMEA,$GNGSA,A,3,02,04,06,09,10,11,12,25,36,,,,0.8,0.4,0.6,3*30,1774106289008
NMEA,$PSSGR,GSA,A,3,302,304,306,309,310,311,312,325,336,,,,0.8,0.4,0.6,3,1*7E,1774106289008
NMEA,$GNGSA,A,3,02,05,13,19,20,29,30,35,60,,,,0.8,0.4,0.6,4*39,1774106289008
NMEA,$PSSGR,GSA,A,3,219,220,229,230,235,,,,,,,,0.8,0.4,0.6,4,5*71,1774106289008
NMEA,$GNVTG,,T,,M,0.0,N,0.0,K,A*3D,1774106289008
NMEA,$GNDTM,W84,,0000.000000,N,00000.000000,E,0.000,W84*41,1774106289008
NMEA,$GNRMC,151809.00,A,3210.128053,N,03448.793596,E,0.0,,210326,5.2,E,A,V*79,1774106289008
NMEA,$GNGNS,151809.00,3210.128053,N,03448.793596,E,AAAANN,27,0.4,19.9,19.1,,,V*1E,1774106289008
NMEA,$GNGGA,151809.00,3210.128053,N,03448.793596,E,1,12,0.4,19.9,M,19.1,M,,*48,1774106289008
NMEA,$PSMSG,magcal=PASS,bluesky=0*00,1774106289017
NMEA,$GPGSV,3,1,11,02,28,308,26,08,52,300,35,10,55,024,30,18,11,096,19,1*61,1774106289997
NMEA,$GPGSV,3,2,11,23,20,046,20,27,74,227,36,32,56,132,38,36,00,000,37,1*6A,1774106289997
NMEA,$GPGSV,3,3,11,40,00,000,34,41,00,000,41,49,00,000,33,1*5A,1774106289997
NMEA,$GPGSV,2,1,06,08,52,300,32,10,55,024,24,18,11,096,16,23,20,046,17,8*62,1774106289997
NMEA,$GPGSV,2,2,06,27,74,227,34,32,56,132,29,8*64,1774106289997
NMEA,$GLGSV,2,1,07,,00,000,35,66,56,188,30,79,06,280,24,88,60,040,29,1*76,1774106289997
NMEA,$GLGSV,2,2,07,87,16,110,27,,00,000,23,72,13,028,13,1*4C,1774106289997
NMEA,$GAGSV,3,1,10,02,27,278,32,04,40,072,25,06,48,108,26,09,43,145,23,7*71,1774106289997
NMEA,$GAGSV,3,2,10,10,31,074,21,11,52,046,29,12,11,086,18,25,25,218,28,7*7B,1774106289997
NMEA,$GAGSV,3,3,10,34,05,286,20,36,46,319,40,7*76,1774106289997
NMEA,$GAGSV,3,1,10,02,27,278,28,04,40,072,26,06,48,108,30,09,43,145,20,1*7B,1774106289997
NMEA,$GAGSV,3,2,10,10,31,074,22,11,52,046,18,12,11,086,22,25,25,218,29,1*74,1774106289997
NMEA,$GAGSV,3,3,10,34,05,286,16,36,46,319,32,1*70,1774106289997
NMEA,$GQGSV,1,1,01,05,00,000,41,1*54,1774106289997
NMEA,$GBGSV,3,1,11,60,30,115,32,48,00,000,29,47,00,000,31,35,42,318,39,1*73,1774106289997
NMEA,$GBGSV,3,2,11,30,22,123,26,29,72,095,36,20,58,047,28,19,66,201,36,1*7F,1774106289997
NMEA,$GBGSV,3,3,11,08,16,040,19,05,46,138,29,02,28,111,28,1*40,1774106289997
NMEA,$GBGSV,2,1,05,19,66,201,33,20,58,047,23,29,72,095,21,30,22,123,22,5*70,1774106289997
NMEA,$GBGSV,2,2,05,35,42,318,30,5*4E,1774106289997
NMEA,$GNGSA,A,3,02,08,10,16,27,32,,,,,,,0.8,0.5,0.6,1*32,1774106290007
NMEA,$PSSGR,GSA,A,3,08,10,27,32,,,,,,,,,0.8,0.5,0.6,1,8*43,1774106290007
NMEA,$GNGSA,A,3,66,88,,,,,,,,,,,0.8,0.5,0.6,2*39,1774106290007
NMEA,$GNGSA,A,3,02,04,06,09,10,11,12,25,36,,,,0.8,0.5,0.6,3*31,1774106290007
NMEA,$PSSGR,GSA,A,3,302,304,306,309,310,311,312,325,336,,,,0.8,0.5,0.6,3,1*7F,1774106290007
NMEA,$GNGSA,A,3,02,05,13,19,20,29,30,35,60,,,,0.8,0.5,0.6,4*38,1774106290007
NMEA,$PSSGR,GSA,A,3,219,220,229,230,235,,,,,,,,0.8,0.5,0.6,4,5*70,1774106290007
NMEA,$GNVTG,258.6,T,253.4,M,5.6,N,10.3,K,A*05,1774106290007
NMEA,$GNDTM,W84,,0000.000000,N,00000.000000,E,0.000,W84*41,1774106290007
NMEA,$GNRMC,151810.00,A,3210.127922,N,03448.791918,E,5.6,258.6,210326,5.2,E,A,V*5D,1774106290007
NMEA,$GNGNS,151810.00,3210.127922,N,03448.791918,E,AAAANN,26,0.5,19.7,19.1,,,V*10,1774106290007
NMEA,$GNGGA,151810.00,3210.127922,N,03448.791918,E,1,12,0.5,19.7,M,19.1,M,,*47,1774106290007
NMEA,$PSMSG,magcal=PASS,bluesky=0*00,1774106290013
NMEA,$GPGSV,3,1,11,02,28,308,31,08,52,300,38,10,55,024,33,18,11,096,19,1*69,1774106290997
NMEA,$GPGSV,3,2,11,23,20,046,26,27,74,227,33,32,56,132,35,36,00,000,35,1*66,1774106290997
NMEA,$GPGSV,3,3,11,40,00,000,34,41,00,000,41,49,00,000,33,1*5A,1774106290997
NMEA,$GPGSV,2,1,06,08,52,300,30,10,55,024,26,18,11,096,16,23,20,046,16,8*63,1774106290997
NMEA,$GPGSV,2,2,06,27,74,227,35,32,56,132,24,8*68,1774106290997
NMEA,$GLGSV,2,1,07,,00,000,29,66,56,188,35,79,06,280,21,88,60,040,24,1*76,1774106290997
NMEA,$GLGSV,2,2,07,87,16,110,27,,00,000,24,72,13,028,13,1*4B,1774106290997
NMEA,$GAGSV,3,1,10,02,27,278,34,04,40,072,28,06,48,108,26,09,43,145,22,7*7B,1774106290997
NMEA,$GAGSV,3,2,10,10,31,074,21,11,52,046,23,12,11,086,18,25,25,218,28,7*71,1774106290997
NMEA,$GAGSV,3,3,10,34,05,286,20,36,46,319,34,7*75,1774106290997
NMEA,$GAGSV,3,1,10,02,27,278,33,04,40,072,22,06,48,108,23,09,43,145,20,1*77,1774106290997
NMEA,$GAGSV,3,2,10,10,31,074,22,11,52,046,18,12,11,086,22,25,25,218,26,1*7B,1774106290997
NMEA,$GAGSV,3,3,10,34,05,286,16,36,46,319,31,1*73,1774106290997
NMEA,$GQGSV,1,1,01,05,00,000,33,1*51,1774106290997
NMEA,$GBGSV,3,1,11,60,30,115,29,48,00,000,32,47,00,000,28,35,42,318,35,1*77,1774106290997
NMEA,$GBGSV,3,2,11,30,22,123,26,29,72,095,36,20,58,047,26,19,66,201,37,1*70,1774106290997
NMEA,$GBGSV,3,3,11,08,16,040,19,05,46,138,29,02,28,111,28,1*40,1774106290997
NMEA,$GBGSV,2,1,05,19,66,201,33,20,58,047,23,29,72,095,22,30,22,123,22,5*73,1774106290997
NMEA,$GBGSV,2,2,05,35,42,318,24,5*4B,1774106290997
NMEA,$GNGSA,A,3,02,08,10,16,23,27,32,,,,,,0.7,0.5,0.6,1*3C,1774106291012
NMEA,$PSSGR,GSA,A,3,08,10,27,32,,,,,,,,,0.7,0.5,0.6,1,8*4C,1774106291012
NMEA,$GNGSA,A,3,66,79,88,,,,,,,,,,0.7,0.5,0.6,2*38,1774106291012
NMEA,$GNGSA,A,3,02,04,06,09,10,11,12,25,36,,,,0.7,0.5,0.6,3*3E,1774106291012
NMEA,$PSSGR,GSA,A,3,302,304,306,309,310,312,325,336,,,,,0.7,0.5,0.6,3,1*43,1774106291012
NMEA,$GNGSA,A,3,02,05,19,20,29,30,35,60,,,,,0.7,0.5,0.6,4*35,1774106291012
NMEA,$PSSGR,GSA,A,3,219,220,229,230,235,,,,,,,,0.7,0.5,0.6,4,5*7F,1774106291012
NMEA,$GNVTG,263.0,T,257.8,M,5.8,N,10.8,K,A*06,1774106291012
NMEA,$GNDTM,W84,,0000.000000,N,00000.000000,E,0.000,W84*41,1774106291012
NMEA,$GNRMC,151811.00,A,3210.127626,N,03448.789967,E,5.8,263.0,210326,5.2,E,A,V*56,1774106291012
NMEA,$GNGNS,151811.00,3210.127626,N,03448.789967,E,AAAANN,27,0.5,19.0,19.1,,,V*1D,1774106291012
NMEA,$GNGGA,151811.00,3210.127626,N,03448.789967,E,1,12,0.5,19.0,M,19.1,M,,*4B,1774106291012
NMEA,$PSMSG,magcal=PASS,bluesky=0*00,1774106291021
NMEA,$GPGSV,3,1,11,02,28,308,32,08,52,300,35,10,55,024,35,18,11,096,19,1*61,1774106291997
NMEA,$GPGSV,3,2,11,23,20,046,23,27,74,227,38,32,56,132,37,36,00,000,35,1*6A,1774106291997
NMEA,$GPGSV,3,3,11,40,00,000,34,41,00,000,41,49,00,000,33,1*5A,1774106291997
NMEA,$GPGSV,2,1,06,08,52,300,26,10,55,024,25,18,11,096,16,23,20,046,24,8*66,1774106291997
NMEA,$GPGSV,2,2,06,27,74,227,33,32,56,132,26,8*6C,1774106291997
NMEA,$GLGSV,2,1,07,,00,000,29,66,56,188,34,79,06,280,29,88,60,040,31,1*7B,1774106291997
NMEA,$GLGSV,2,2,07,87,16,110,27,,00,000,24,72,13,028,13,1*4B,1774106291997
NMEA,$GAGSV,3,1,10,02,27,278,34,04,40,072,24,06,48,108,25,09,43,145,25,7*73,1774106291997
NMEA,$GAGSV,3,2,10,10,31,074,20,11,52,046,23,12,11,086,18,25,25,218,24,7*7C,1774106291997
NMEA,$GAGSV,3,3,10,34,05,286,20,36,46,319,29,7*79,1774106291997
NMEA,$GAGSV,3,1,10,02,27,278,30,04,40,072,22,06,48,108,26,09,43,145,27,1*76,1774106291997
NMEA,$GAGSV,3,2,10,10,31,074,22,11,52,046,18,12,11,086,16,25,25,218,25,1*7F,1774106291997
NMEA,$GAGSV,3,3,10,34,05,286,16,36,46,319,28,1*7B,1774106291997
NMEA,$GQGSV,1,1,01,05,00,000,33,1*51,1774106291997
NMEA,$GBGSV,3,1,11,60,30,115,29,48,00,000,34,47,00,000,24,35,42,318,34,1*7C,1774106291997
NMEA,$GBGSV,3,2,11,30,22,123,23,29,72,095,36,20,58,047,25,19,66,201,36,1*77,1774106291997
NMEA,$GBGSV,3,3,11,08,16,040,19,05,46,138,29,02,28,111,28,1*40,1774106291997
NMEA,$GBGSV,2,1,05,19,66,201,30,20,58,047,24,29,72,095,23,30,22,123,22,5*76,1774106291997
NMEA,$GBGSV,2,2,05,35,42,318,23,5*4C,1774106291997
NMEA,$GNGSA,A,3,02,08,10,16,23,27,32,,,,,,0.7,0.5,0.6,1*3C,1774106292012
NMEA,$PSSGR,GSA,A,3,08,10,23,27,32,,,,,,,,0.7,0.5,0.6,1,8*4D,1774106292012
NMEA,$GNGSA,A,3,66,79,88,,,,,,,,,,0.7,0.5,0.6,2*38,1774106292012
NMEA,$GNGSA,A,3,02,04,06,09,10,11,12,25,36,,,,0.7,0.5,0.6,3*3E,1774106292012
NMEA,$PSSGR,GSA,A,3,302,304,306,309,310,312,325,336,,,,,0.7,0.5,0.6,3,1*43,1774106292012
NMEA,$GNGSA,A,3,02,05,19,20,29,30,35,60,,,,,0.7,0.5,0.6,4*35,1774106292012
NMEA,$PSSGR,GSA,A,3,219,220,229,230,235,,,,,,,,0.7,0.5,0.6,4,5*7F,1774106292012
NMEA,$GNVTG,266.6,T,261.4,M,8.3,N,15.3,K,A*04,1774106292012
NMEA,$GNDTM,W84,,0000.000000,N,00000.000000,E,0.000,W84*41,1774106292012
NMEA,$GNRMC,151812.00,A,3210.127466,N,03448.787266,E,8.3,266.6,210326,5.2,E,A,V*52,1774106292012
NMEA,$GNGNS,151812.00,3210.127466,N,03448.787266,E,AAAANN,27,0.5,18.8,19.1,,,V*15,1774106292012
NMEA,$GNGGA,151812.00,3210.127466,N,03448.787266,E,1,12,0.5,18.8,M,19.1,M,,*43,1774106292012
NMEA,$PSMSG,magcal=PASS,bluesky=0*00,1774106292020
NMEA,$GPGSV,3,1,11,02,28,308,30,08,52,300,38,10,55,024,33,18,11,096,19,1*68,1774106292999
NMEA,$GPGSV,3,2,11,23,20,046,23,27,74,227,42,32,56,132,32,36,00,000,36,1*61,1774106292999
NMEA,$GPGSV,3,3,11,40,00,000,34,41,00,000,41,49,00,000,36,1*5F,1774106292999
NMEA,$GPGSV,2,1,06,08,52,300,27,10,55,024,23,18,11,096,16,23,20,046,24,8*61,1774106292999
NMEA,$GPGSV,2,2,06,27,74,227,33,32,56,132,24,8*6E,1774106292999
NMEA,$GLGSV,2,1,07,,00,000,29,66,56,188,38,79,06,280,33,88,60,040,29,1*75,1774106292999
NMEA,$GLGSV,2,2,07,87,16,110,20,,00,000,26,72,13,028,13,1*4E,1774106292999
NMEA,$GAGSV,3,1,10,02,27,278,37,04,40,072,24,06,48,108,31,09,43,145,24,7*74,1774106292999
NMEA,$GAGSV,3,2,10,10,31,074,20,11,52,046,23,12,11,086,18,25,25,218,28,7*70,1774106292999
NMEA,$GAGSV,3,3,10,34,05,286,17,36,46,319,29,7*7D,1774106292999
NMEA,$GAGSV,3,1,10,02,27,278,33,04,40,072,22,06,48,108,23,09,43,145,25,1*72,1774106292999
NMEA,$GAGSV,3,2,10,10,31,074,18,11,52,046,18,12,11,086,16,25,25,218,26,1*75,1774106292999
NMEA,$GAGSV,3,3,10,34,05,286,16,36,46,319,24,1*77,1774106292999
NMEA,$GQGSV,1,1,01,05,00,000,35,1*57,1774106292999
NMEA,$GBGSV,3,1,10,60,30,115,29,48,00,000,35,47,00,000,30,35,42,318,33,1*7E,1774106292999
NMEA,$GBGSV,3,2,10,30,22,123,25,29,72,095,24,20,58,047,28,19,66,201,40,1*7F,1774106292999
NMEA,$GBGSV,3,3,10,05,46,138,29,02,28,111,28,1*72,1774106292999
NMEA,$GBGSV,2,1,05,19,66,201,33,20,58,047,21,29,72,095,25,30,22,123,22,5*76,1774106292999
NMEA,$GBGSV,2,2,05,35,42,318,23,5*4C,1774106292999
NMEA,$GNGSA,A,3,02,08,10,16,23,27,32,,,,,,0.7,0.5,0.6,1*3C,1774106293014
NMEA,$PSSGR,GSA,A,3,08,10,23,27,32,,,,,,,,0.7,0.5,0.6,1,8*4D,1774106293014
NMEA,$GNGSA,A,3,66,79,88,,,,,,,,,,0.7,0.5,0.6,2*38,1774106293014
NMEA,$GNGSA,A,3,02,04,06,09,10,11,25,36,,,,,0.7,0.5,0.6,3*3D,1774106293014
NMEA,$PSSGR,GSA,A,3,302,304,306,309,310,325,336,,,,,,0.7,0.5,0.6,3,1*73,1774106293014
NMEA,$GNGSA,A,3,02,05,19,20,29,30,35,60,,,,,0.7,0.5,0.6,4*35,1774106293014
NMEA,$PSSGR,GSA,A,3,219,220,229,230,235,,,,,,,,0.7,0.5,0.6,4,5*7F,1774106293014
NMEA,$GNVTG,274.9,T,269.7,M,9.4,N,17.5,K,A*01,1774106293014
NMEA,$GNDTM,W84,,0000.000000,N,00000.000000,E,0.000,W84*41,1774106293014
NMEA,$GNRMC,151813.00,A,3210.127643,N,03448.784129,E,9.4,274.9,210326,5.2,E,A,V*57,1774106293014
NMEA,$GNGNS,151813.00,3210.127643,N,03448.784129,E,AAAANN,26,0.5,18.7,19.1,,,V*14,1774106293014
NMEA,$GNGGA,151813.00,3210.127643,N,03448.784129,E,1,12,0.5,18.7,M,19.1,M,,*43,1774106293014
NMEA,$PSMSG,magcal=PASS,bluesky=0*00,1774106293021
NMEA,$GPGSV,3,1,10,02,28,308,28,08,52,300,41,10,55,024,38,18,11,096,19,1*65,1774106294001
NMEA,$GPGSV,3,2,10,27,74,227,42,32,56,132,34,36,00,000,37,40,00,000,34,1*64,1774106294001
NMEA,$GPGSV,3,3,10,41,00,000,41,49,00,000,37,1*6C,1774106294001
NMEA,$GPGSV,2,1,06,08,52,300,30,10,55,024,25,18,11,096,16,23,20,046,24,8*61,1774106294001
NMEA,$GPGSV,2,2,06,27,74,227,33,32,56,132,26,8*6C,1774106294001
NMEA,$GLGSV,2,1,07,,00,000,31,66,56,188,40,79,06,280,32,88,60,040,31,1*7B,1774106294001
NMEA,$GLGSV,2,2,07,87,16,110,20,,00,000,26,72,13,028,13,1*4E,1774106294001
NMEA,$GAGSV,3,1,10,02,27,278,36,04,40,072,24,06,48,108,31,09,43,145,23,7*72,1774106294001
NMEA,$GAGSV,3,2,10,10,31,074,20,11,52,046,17,12,11,086,18,25,25,218,32,7*7C,1774106294001
NMEA,$GAGSV,3,3,10,34,05,286,30,36,46,319,30,7*70,1774106294001
NMEA,$GAGSV,3,1,10,02,27,278,33,04,40,072,22,06,48,108,24,09,43,145,29,1*79,1774106294001
NMEA,$GAGSV,3,2,10,10,31,074,18,11,52,046,18,12,11,086,16,25,25,218,29,1*7A,1774106294001
NMEA,$GAGSV,3,3,10,34,05,286,16,36,46,319,25,1*76,1774106294001
NMEA,$GQGSV,1,1,01,05,00,000,34,1*56,1774106294001
NMEA,$GBGSV,3,1,10,60,30,115,29,48,00,000,36,47,00,000,32,35,42,318,36,1*7A,1774106294001
NMEA,$GBGSV,3,2,10,30,22,123,29,29,72,095,24,20,58,047,29,19,66,201,41,1*73,1774106294001
NMEA,$GBGSV,3,3,10,05,46,138,29,02,28,111,28,1*72,1774106294001
NMEA,$GBGSV,2,1,05,19,66,201,32,20,58,047,24,29,72,095,24,30,22,123,22,5*73,1774106294001
NMEA,$GBGSV,2,2,05,35,42,318,21,5*4E,1774106294001
NMEA,$GNGSA,A,3,02,08,10,16,23,27,32,,,,,,0.7,0.4,0.6,1*3D,1774106294024
NMEA,$PSSGR,GSA,A,3,08,10,23,27,32,,,,,,,,0.7,0.4,0.6,1,8*4C,1774106294024
NMEA,$GNGSA,A,3,66,79,88,,,,,,,,,,0.7,0.4,0.6,2*39,1774106294024
NMEA,$GNGSA,A,3,02,04,06,09,10,11,25,34,36,,,,0.7,0.4,0.6,3*3B,1774106294024
NMEA,$PSSGR,GSA,A,3,302,304,306,309,310,325,336,,,,,,0.7,0.4,0.6,3,1*72,1774106294024
NMEA,$GNGSA,A,3,02,05,19,20,29,30,35,60,,,,,0.7,0.4,0.6,4*34,1774106294024
NMEA,$PSSGR,GSA,A,3,219,220,229,230,235,,,,,,,,0.7,0.4,0.6,4,5*7E,1774106294024
NMEA,$GNVTG,275.2,T,270.0,M,12.0,N,22.3,K,A*3A,1774106294024
NMEA,$GNDTM,W84,,0000.000000,N,00000.000000,E,0.000,W84*41,1774106294024
NMEA,$GNRMC,151814.00,A,3210.128065,N,03448.780181,E,12.0,275.2,210326,5.2,E,A,V*6F,1774106294024
NMEA,$GNGNS,151814.00,3210.128065,N,03448.780181,E,AAAANN,27,0.4,18.9,19.1,,,V*16,1774106294024
NMEA,$GNGGA,151814.00,3210.128065,N,03448.780181,E,1,12,0.4,18.9,M,19.1,M,,*40,1774106294024
NMEA,$PSMSG,magcal=PASS,bluesky=0*00,1774106294028
NMEA,$GPGSV,3,1,10,02,28,308,30,08,52,300,40,10,55,024,38,18,11,096,17,1*63,1774106295001
NMEA,$GPGSV,3,2,10,27,74,227,43,32,56,132,31,36,00,000,36,40,00,000,34,1*61,1774106295001
NMEA,$GPGSV,3,3,10,41,00,000,41,49,00,000,37,1*6C,1774106295001
NMEA,$GPGSV,2,1,06,08,52,300,28,10,55,024,25,18,11,096,16,23,20,046,24,8*68,1774106295001
NMEA,$GPGSV,2,2,06,27,74,227,32,32,56,132,23,8*68,1774106295001
NMEA,$GLGSV,2,1,07,,00,000,30,66,56,188,42,79,06,280,34,88,60,040,35,1*7A,1774106295001
NMEA,$GLGSV,2,2,07,87,16,110,20,,00,000,25,72,13,028,13,1*4D,1774106295001
NMEA,$GAGSV,3,1,10,02,27,278,37,04,40,072,25,06,48,108,31,09,43,145,27,7*76,1774106295001
NMEA,$GAGSV,3,2,10,10,31,074,20,11,52,046,17,12,11,086,18,25,25,218,30,7*7E,1774106295001
NMEA,$GAGSV,3,3,10,34,05,286,31,36,46,319,32,7*73,1774106295001
NMEA,$GAGSV,3,1,10,02,27,278,34,04,40,072,19,06,48,108,24,09,43,145,30,1*7E,1774106295001
NMEA,$GAGSV,3,2,10,10,31,074,18,11,52,046,18,12,11,086,16,25,25,218,29,1*7A,1774106295001
NMEA,$GAGSV,3,3,10,34,05,286,16,36,46,319,26,1*75,1774106295001
NMEA,$GQGSV,1,1,01,05,00,000,36,1*54,1774106295001
NMEA,$GBGSV,3,1,11,60,30,115,29,48,00,000,38,47,00,000,31,35,42,318,36,1*76,1774106295001
NMEA,$GBGSV,3,2,11,30,22,123,29,29,72,095,23,20,58,047,29,19,66,201,41,1*75,1774106295001
NMEA,$GBGSV,3,3,11,13,27,039,20,05,46,138,29,02,28,111,28,1*4C,1774106295001
NMEA,$GBGSV,2,1,05,19,66,201,32,20,58,047,25,29,72,095,22,30,22,123,22,5*74,1774106295001
NMEA,$GBGSV,2,2,05,35,42,318,20,5*4F,1774106295001
NMEA,$GNGSA,A,3,02,08,10,16,23,27,32,,,,,,0.7,0.4,0.6,1*3D,1774106295015
NMEA,$PSSGR,GSA,A,3,08,10,23,27,32,,,,,,,,0.7,0.4,0.6,1,8*4C,1774106295015
NMEA,$GNGSA,A,3,66,79,88,,,,,,,,,,0.7,0.4,0.6,2*39,1774106295015
NMEA,$GNGSA,A,3,02,04,06,09,10,11,25,34,36,,,,0.7,0.4,0.6,3*3B,1774106295015
NMEA,$PSSGR,GSA,A,3,302,304,306,309,310,325,336,,,,,,0.7,0.4,0.6,3,1*72,1774106295015
NMEA,$GNGSA,A,3,02,05,19,20,29,30,35,60,,,,,0.7,0.4,0.6,4*34,1774106295015
NMEA,$PSSGR,GSA,A,3,219,220,229,230,235,,,,,,,,0.7,0.4,0.6,4,5*7E,1774106295015
NMEA,$GNVTG,272.4,T,267.2,M,13.3,N,24.6,K,A*3E,1774106295015
NMEA,$GNDTM,W84,,0000.000000,N,00000.000000,E,0.000,W84*41,1774106295015
NMEA,$GNRMC,151815.00,A,3210.128355,N,03448.775295,E,13.3,272.4,210326,5.2,E,A,V*61,1774106295015
NMEA,$GNGNS,151815.00,3210.128355,N,03448.775295,E,AAAANN,27,0.4,18.6,19.1,,,V*14,1774106295015
NMEA,$GNGGA,151815.00,3210.128355,N,03448.775295,E,1,12,0.4,18.6,M,19.1,M,,*42,1774106295015
NMEA,$PSMSG,magcal=PASS,bluesky=0*00,1774106295022
NMEA,$GPGSV,3,1,11,02,28,308,37,08,52,300,42,10,55,024,38,16,17,212,26,1*63,1774106296002
NMEA,$GPGSV,3,2,11,18,11,096,17,27,74,227,44,32,56,132,28,36,00,000,36,1*6C,1774106296002
NMEA,$GPGSV,3,3,11,40,00,000,34,41,00,000,41,49,00,000,35,1*5C,1774106296002
NMEA,$GPGSV,2,1,06,08,52,300,26,10,55,024,26,18,11,096,16,23,20,046,24,8*65,1774106296002
NMEA,$GPGSV,2,2,06,27,74,227,33,32,56,132,23,8*69,1774106296002
NMEA,$GLGSV,2,1,07,,00,000,33,66,56,188,33,79,06,280,29,88,60,040,35,1*73,1774106296002
NMEA,$GLGSV,2,2,07,87,16,110,23,,00,000,31,72,13,028,13,1*4B,1774106296002
NMEA,$GAGSV,3,1,10,02,27,278,37,04,40,072,27,06,48,108,32,09,43,145,25,7*75,1774106296002
NMEA,$GAGSV,3,2,10,10,31,074,17,11,52,046,21,12,11,086,18,25,25,218,30,7*7F,1774106296002
NMEA,$GAGSV,3,3,10,34,05,286,33,36,46,319,32,7*71,1774106296002
NMEA,$GAGSV,3,1,10,02,27,278,33,04,40,072,19,06,48,108,24,09,43,145,27,1*7F,1774106296002
NMEA,$GAGSV,3,2,10,10,31,074,18,11,52,046,18,12,11,086,16,25,25,218,29,1*7A,1774106296002
NMEA,$GAGSV,3,3,10,34,05,286,16,36,46,319,27,1*74,1774106296002
NMEA,$GQGSV,1,1,01,05,00,000,36,1*54,1774106296002
NMEA,$GBGSV,3,1,11,60,30,115,25,48,00,000,38,47,00,000,31,35,42,318,38,1*74,1774106296002
NMEA,$GBGSV,3,2,11,30,22,123,24,29,72,095,23,20,58,047,31,19,66,201,37,1*70,1774106296002
NMEA,$GBGSV,3,3,11,13,27,039,20,05,46,138,29,02,28,111,28,1*4C,1774106296002
NMEA,$GBGSV,2,1,05,19,66,201,28,20,58,047,21,29,72,095,23,30,22,123,17,5*7C,1774106296002
NMEA,$GBGSV,2,2,05,35,42,318,21,5*4E,1774106296002
NMEA,$GNGSA,A,3,02,08,10,16,23,27,32,,,,,,0.7,0.5,0.6,1*3C,1774106296017
NMEA,$PSSGR,GSA,A,3,08,10,23,27,32,,,,,,,,0.7,0.5,0.6,1,8*4D,1774106296017
NMEA,$GNGSA,A,3,66,79,88,,,,,,,,,,0.7,0.5,0.6,2*38,1774106296017
NMEA,$GNGSA,A,3,02,04,06,09,10,11,25,34,36,,,,0.7,0.5,0.6,3*3A,1774106296017
NMEA,$PSSGR,GSA,A,3,302,304,306,309,310,325,336,,,,,,0.7,0.5,0.6,3,1*73,1774106296017
NMEA,$GNGSA,A,3,02,19,20,29,30,35,60,,,,,,0.7,0.5,0.6,4*30,1774106296017
NMEA,$PSSGR,GSA,A,3,219,220,229,235,,,,,,,,,0.7,0.5,0.6,4,5*4E,1774106296017
NMEA,$GNVTG,274.0,T,268.8,M,13.3,N,24.6,K,A*39,1774106296017
NMEA,$GNDTM,W84,,0000.000000,N,00000.000000,E,0.000,W84*41,1774106296017
NMEA,$GNRMC,151816.00,A,3210.128610,N,03448.770928,E,13.3,274.0,210326,5.2,E,A,V*6C,1774106296017
NMEA,$GNGNS,151816.00,3210.128610,N,03448.770928,E,AAAANN,26,0.5,18.5,19.1,,,V*18,1774106296017
NMEA,$GNGGA,151816.00,3210.128610,N,03448.770928,E,1,12,0.5,18.5,M,19.1,M,,*4F,1774106296017
NMEA,$PSMSG,magcal=PASS,bluesky=0*00,1774106296023
NMEA,$GPGSV,3,1,11,02,28,308,38,08,52,300,43,10,55,024,36,16,17,212,28,1*6D,1774106297004
NMEA,$GPGSV,3,2,11,18,11,096,17,27,74,227,44,32,56,132,29,36,00,000,37,1*6C,1774106297004
NMEA,$GPGSV,3,3,11,40,00,000,34,41,00,000,41,49,00,000,38,1*51,1774106297004
NMEA,$GPGSV,2,1,06,08,52,300,29,10,55,024,26,18,11,096,11,23,20,046,24,8*6D,1774106297004
NMEA,$GPGSV,2,2,06,27,74,227,34,32,56,132,23,8*6E,1774106297004
NMEA,$GLGSV,2,1,07,,00,000,33,66,56,188,42,79,06,280,29,88,60,040,35,1*75,1774106297004
NMEA,$GLGSV,2,2,07,87,16,110,28,,00,000,34,72,13,028,13,1*45,1774106297004
NMEA,$GAGSV,3,1,10,02,27,278,37,04,40,072,25,06,48,108,33,09,43,145,25,7*76,1774106297004
NMEA,$GAGSV,3,2,10,10,31,074,17,11,52,046,23,12,11,086,18,25,25,218,31,7*7C,1774106297004
NMEA,$GAGSV,3,3,10,34,05,286,33,36,46,319,33,7*70,1774106297004
NMEA,$GAGSV,3,1,10,02,27,278,35,04,40,072,20,06,48,108,25,09,43,145,21,1*74,1774106297004
NMEA,$GAGSV,3,2,10,10,31,074,18,11,52,046,18,12,11,086,16,25,25,218,31,1*73,1774106297004
NMEA,$GAGSV,3,3,10,34,05,286,16,36,46,319,28,1*7B,1774106297004
NMEA,$GQGSV,1,1,01,05,00,000,37,1*55,1774106297004
NMEA,$GBGSV,3,1,10,60,30,115,25,48,00,000,39,47,00,000,32,35,42,318,41,1*79,1774106297004
NMEA,$GBGSV,3,2,10,30,22,123,26,29,72,095,22,20,58,047,33,19,66,201,42,1*72,1774106297004
NMEA,$GBGSV,3,3,10,05,46,138,29,02,28,111,28,1*72,1774106297004
NMEA,$GBGSV,2,1,06,19,66,201,32,20,58,047,26,22,13,214,22,29,72,095,25,5*75,1774106297004
NMEA,$GBGSV,2,2,06,30,22,123,17,35,42,318,24,5*7D,1774106297004
NMEA,$GNGSA,A,3,02,08,10,16,27,32,,,,,,,0.9,0.6,0.7,1*31,1774106297016
NMEA,$PSSGR,GSA,A,2,08,10,27,,,,,,,,,,0.9,0.6,0.7,1,8*40,1774106297016
NMEA,$GNGSA,A,3,66,88,,,,,,,,,,,0.9,0.6,0.7,2*3A,1774106297016
NMEA,$GNGSA,A,3,02,04,06,09,25,34,36,,,,,,0.9,0.6,0.7,3*37,1774106297016
NMEA,$PSSGR,GSA,A,3,302,304,306,309,325,336,,,,,,,0.9,0.6,0.7,3,1*4D,1774106297016
NMEA,$GNGSA,A,3,19,20,22,29,30,35,,,,,,,0.9,0.6,0.7,4*38,1774106297016
NMEA,$PSSGR,GSA,A,3,219,220,222,229,235,,,,,,,,0.9,0.6,0.7,4,5*70,1774106297016
NMEA,$GNVTG,272.1,T,266.9,M,14.1,N,26.2,K,A*32,1774106297016
NMEA,$GNDTM,W84,,0000.000000,N,00000.000000,E,0.000,W84*41,1774106297016
NMEA,$GNRMC,151817.00,A,3210.128962,N,03448.766388,E,14.1,272.1,210326,5.2,E,A,V*62,1774106297016
NMEA,$GNGNS,151817.00,3210.128962,N,03448.766388,E,AAAANN,21,0.6,18.3,19.1,,,V*16,1774106297016
NMEA,$GNGGA,151817.00,3210.128962,N,03448.766388,E,1,12,0.6,18.3,M,19.1,M,,*46,1774106297016
NMEA,$PSMSG,magcal=PASS,bluesky=0*00,1774106297021
NMEA,$GPGSV,3,1,12,02,28,308,37,08,52,300,42,10,55,024,37,16,17,212,28,1*61,1774106298002
NMEA,$GPGSV,3,2,12,18,11,096,20,23,20,046,21,27,74,227,43,32,56,132,30,1*67,1774106298002
NMEA,$GPGSV,3,3,12,36,00,000,36,40,00,000,34,41,00,000,41,49,00,000,37,1*6D,1774106298002
NMEA,$GPGSV,2,1,06,08,52,300,26,10,55,024,26,18,11,096,11,23,20,046,17,8*62,1774106298002
NMEA,$GPGSV,2,2,06,27,74,227,34,32,56,132,22,8*6F,1774106298002
NMEA,$GLGSV,2,1,07,,00,000,30,66,56,188,41,79,06,280,21,88,60,040,35,1*7D,1774106298002
NMEA,$GLGSV,2,2,07,87,16,110,28,,00,000,31,72,13,028,13,1*40,1774106298002
NMEA,$GAGSV,3,1,10,02,27,278,37,04,40,072,27,06,48,108,32,09,43,145,24,7*74,1774106298002
NMEA,$GAGSV,3,2,10,10,31,074,21,11,52,046,24,12,11,086,18,25,25,218,32,7*7D,1774106298002
NMEA,$GAGSV,3,3,10,34,05,286,27,36,46,319,32,7*74,1774106298002
NMEA,$GAGSV,3,1,10,02,27,278,34,04,40,072,24,06,48,108,23,09,43,145,30,1*77,1774106298002
NMEA,$GAGSV,3,2,10,10,31,074,18,11,52,046,18,12,11,086,16,25,25,218,29,1*7A,1774106298002
NMEA,$GAGSV,3,3,10,34,05,286,16,36,46,319,28,1*7B,1774106298002
NMEA,$GQGSV,1,1,01,05,00,000,33,1*51,1774106298002
NMEA,$GBGSV,3,1,12,60,30,115,25,48,00,000,39,47,00,000,29,35,42,318,40,1*70,1774106298002
NMEA,$GBGSV,3,2,12,30,22,123,27,29,72,095,24,22,13,214,24,20,58,047,35,1*7F,1774106298002
NMEA,$GBGSV,3,3,12,19,66,201,42,13,27,039,29,05,46,138,29,02,28,111,28,1*7B,1774106298002
NMEA,$GBGSV,2,1,06,19,66,201,33,20,58,047,26,22,13,214,21,29,72,095,25,5*77,1774106298002
NMEA,$GBGSV,2,2,06,30,22,123,17,35,42,318,24,5*7D,1774106298002
NMEA,$GNGSA,A,3,02,08,10,16,27,32,,,,,,,0.9,0.5,0.7,1*32,1774106298017
NMEA,$PSSGR,GSA,A,3,08,10,27,32,,,,,,,,,0.9,0.5,0.7,1,8*43,1774106298017
NMEA,$GNGSA,A,3,66,88,,,,,,,,,,,0.9,0.5,0.7,2*39,1774106298017
NMEA,$GNGSA,A,3,02,04,06,09,25,34,36,,,,,,0.9,0.5,0.7,3*34,1774106298017
NMEA,$PSSGR,GSA,A,3,302,304,306,309,325,336,,,,,,,0.9,0.5,0.7,3,1*4E,1774106298017
NMEA,$GNGSA,A,3,13,19,20,22,29,30,35,,,,,,0.9,0.5,0.7,4*39,1774106298017
NMEA,$PSSGR,GSA,A,3,219,220,222,229,235,,,,,,,,0.9,0.5,0.7,4,5*73,1774106298017
NMEA,$GNVTG,274.6,T,269.4,M,13.6,N,25.2,K,A*32,1774106298017
NMEA,$GNDTM,W84,,0000.000000,N,00000.000000,E,0.000,W84*41,1774106298017
NMEA,$GNRMC,151818.00,A,3210.129435,N,03448.762132,E,13.6,274.6,210326,5.2,E,A,V*65,1774106298017
NMEA,$GNGNS,151818.00,3210.129435,N,03448.762132,E,AAAANN,22,0.5,17.9,19.1,,,V*15,1774106298017
NMEA,$GNGGA,151818.00,3210.129435,N,03448.762132,E,1,12,0.5,17.9,M,19.1,M,,*46,1774106298017
NMEA,$PSMSG,magcal=PASS,bluesky=0*00,1774106298023
NMEA,$GPGSV,3,1,11,02,28,308,38,08,52,300,43,10,55,024,37,18,11,096,25,1*67,1774106299002
NMEA,$GPGSV,3,2,11,23,20,046,24,27,74,227,43,32,56,132,31,36,00,000,37,1*65,1774106299002
NMEA,$GPGSV,3,3,11,40,00,000,34,41,00,000,41,49,00,000,36,1*5F,1774106299002
NMEA,$GPGSV,2,1,06,08,52,300,29,10,55,024,23,18,11,096,11,23,20,046,24,8*68,1774106299002
NMEA,$GPGSV,2,2,06,27,74,227,35,32,56,132,27,8*6B,1774106299002
NMEA,$GLGSV,2,1,07,,00,000,32,66,56,188,41,79,06,280,25,88,60,040,35,1*7B,1774106299002
NMEA,$GLGSV,2,2,07,87,16,110,22,,00,000,28,72,13,028,13,1*42,1774106299002
NMEA,$GAGSV,3,1,10,02,27,278,38,04,40,072,24,06,48,108,31,09,43,145,23,7*7C,1774106299002
NMEA,$GAGSV,3,2,10,10,31,074,25,11,52,046,24,12,11,086,18,25,25,218,32,7*79,1774106299002
NMEA,$GAGSV,3,3,10,34,05,286,27,36,46,319,35,7*73,1774106299002
NMEA,$GAGSV,3,1,10,02,27,278,34,04,40,072,24,06,48,108,27,09,43,145,30,1*73,1774106299002
NMEA,$GAGSV,3,2,10,10,31,074,17,11,52,046,15,12,11,086,16,25,25,218,30,1*70,1774106299002
NMEA,$GAGSV,3,3,10,34,05,286,16,36,46,319,29,1*7A,1774106299002
NMEA,$GQGSV,1,1,01,05,00,000,34,1*56,1774106299002
NMEA,$GBGSV,3,1,12,60,30,115,26,48,00,000,38,47,00,000,31,35,42,318,41,1*7A,1774106299002
NMEA,$GBGSV,3,2,12,30,22,123,29,29,72,095,24,22,13,214,24,20,58,047,34,1*70,1774106299002
NMEA,$GBGSV,3,3,12,19,66,201,42,13,27,039,25,05,46,138,29,02,28,111,28,1*77,1774106299002
NMEA,$GBGSV,2,1,06,19,66,201,33,20,58,047,28,22,13,214,21,29,72,095,27,5*7B,1774106299002
NMEA,$GBGSV,2,2,06,30,22,123,20,35,42,318,22,5*7F,1774106299002
NMEA,$GNGSA,A,3,02,08,10,16,23,27,32,,,,,,0.8,0.5,0.6,1*33,1774106299016
NMEA,$PSSGR,GSA,A,3,08,10,23,27,32,,,,,,,,0.8,0.5,0.6,1,8*42,1774106299016
NMEA,$GNGSA,A,3,66,79,88,,,,,,,,,,0.8,0.5,0.6,2*37,1774106299016
NMEA,$GNGSA,A,3,02,04,06,09,25,34,36,,,,,,0.8,0.5,0.6,3*34,1774106299016
NMEA,$PSSGR,GSA,A,3,302,304,306,309,325,336,,,,,,,0.8,0.5,0.6,3,1*4E,1774106299016
NMEA,$GNGSA,A,3,13,19,20,22,29,30,35,60,,,,,0.8,0.5,0.6,4*3F,1774106299016
NMEA,$PSSGR,GSA,A,3,219,220,222,229,235,,,,,,,,0.8,0.5,0.6,4,5*73,1774106299016
NMEA,$GNVTG,274.6,T,269.4,M,14.4,N,26.6,K,A*30,1774106299016
NMEA,$GNDTM,W84,,0000.000000,N,00000.000000,E,0.000,W84*41,1774106299016
NMEA,$GNRMC,151819.00,A,3210.129684,N,03448.757381,E,14.4,274.6,210326,5.2,E,A,V*65,1774106299016
NMEA,$GNGNS,151819.00,3210.129684,N,03448.757381,E,AAAANN,25,0.5,17.8,19.1,,,V*16,1774106299016
NMEA,$GNGGA,151819.00,3210.129684,N,03448.757381,E,1,12,0.5,17.8,M,19.1,M,,*42,1774106299016
NMEA,$PSMSG,magcal=PASS,bluesky=0*00,1774106299021
NMEA,$GPGSV,3,1,11,02,28,308,39,08,52,300,43,10,55,024,38,18,11,096,26,1*6A,1774106300001
NMEA,$GPGSV,3,2,11,23,20,046,27,27,74,227,43,32,56,132,32,36,00,000,38,1*6A,1774106300001
NMEA,$GPGSV,3,3,11,40,00,000,34,41,00,000,41,49,00,000,38,1*51,1774106300001
NMEA,$GPGSV,2,1,06,08,52,300,30,10,55,024,25,18,11,096,11,23,20,046,25,8*67,1774106300001
NMEA,$GPGSV,2,2,06,27,74,227,36,32,56,132,26,8*69,1774106300001
NMEA,$GLGSV,2,1,07,,00,000,26,66,56,188,42,79,06,280,24,88,60,040,35,1*7C,1774106300001
NMEA,$GLGSV,2,2,07,87,16,110,22,,00,000,31,72,13,028,13,1*4A,1774106300001
NMEA,$GAGSV,3,1,10,02,27,278,38,04,40,072,24,06,48,108,31,09,43,145,28,7*77,1774106300001
NMEA,$GAGSV,3,2,10,10,31,074,28,11,52,046,23,12,11,086,18,25,25,218,27,7*77,1774106300001
NMEA,$GAGSV,3,3,10,34,05,286,27,36,46,319,36,7*70,1774106300001
NMEA,$GAGSV,3,1,10,02,27,278,33,04,40,072,20,06,48,108,25,09,43,145,31,1*73,1774106300001
NMEA,$GAGSV,3,2,10,10,31,074,24,11,52,046,15,12,11,086,16,25,25,218,23,1*72,1774106300001
NMEA,$GAGSV,3,3,10,34,05,286,16,36,46,319,30,1*72,1774106300001
NMEA,$GQGSV,1,1,01,05,00,000,34,1*56,1774106300001
NMEA,$GBGSV,4,1,13,60,30,115,26,48,00,000,36,47,00,000,32,35,42,318,41,1*71,1774106300001
NMEA,$GBGSV,4,2,13,30,22,123,29,29,72,095,26,22,13,214,24,20,58,047,37,1*77,1774106300001
NMEA,$GBGSV,4,3,13,19,66,201,41,13,27,039,28,08,16,040,26,05,46,138,29,1*73,1774106300001
NMEA,$GBGSV,4,4,13,02,28,111,28,1*47,1774106300001
NMEA,$GBGSV,2,1,06,19,66,201,34,20,58,047,29,22,13,214,21,29,72,095,26,5*7C,1774106300001
NMEA,$GBGSV,2,2,06,30,22,123,23,35,42,318,26,5*78,1774106300001
NMEA,$GNGSA,A,3,02,08,10,16,18,23,27,32,,,,,0.7,0.4,0.5,1*37,1774106300018
NMEA,$PSSGR,GSA,A,3,08,10,23,27,32,,,,,,,,0.7,0.4,0.5,1,8*4F,1774106300018
NMEA,$GNGSA,A,3,66,79,88,,,,,,,,,,0.7,0.4,0.5,2*3A,1774106300018
NMEA,$GNGSA,A,3,02,04,06,09,10,25,34,36,,,,,0.7,0.4,0.5,3*38,1774106300018
NMEA,$PSSGR,GSA,A,3,302,304,306,309,310,325,336,,,,,,0.7,0.4,0.5,3,1*71,1774106300018
NMEA,$GNGSA,A,3,08,13,19,20,22,29,30,35,60,,,,0.7,0.4,0.5,4*3A,1774106300018
NMEA,$PSSGR,GSA,A,3,219,220,222,229,230,235,,,,,,,0.7,0.4,0.5,4,5*4F,1774106300018
NMEA,$GNVTG,274.6,T,269.4,M,14.7,N,27.3,K,A*37,1774106300018
NMEA,$GNDTM,W84,,0000.000000,N,00000.000000,E,0.000,W84*41,1774106300018
NMEA,$GNRMC,151820.00,A,3210.129928,N,03448.752477,E,14.7,274.6,210326,5.2,E,A,V*6E,1774106300018
NMEA,$GNGNS,151820.00,3210.129928,N,03448.752477,E,AAAANN,28,0.4,17.6,19.1,,,V*1C,1774106300018
NMEA,$GNGGA,151820.00,3210.129928,N,03448.752477,E,1,12,0.4,17.6,M,19.1,M,,*45,1774106300018
NMEA,$PSMSG,magcal=PASS,bluesky=0*00,1774106300025
NMEA,$GPGSV,3,1,11,02,28,308,36,08,52,300,43,10,55,024,39,18,11,096,24,1*66,1774106301002
NMEA,$GPGSV,3,2,11,23,20,046,27,27,74,227,42,32,56,132,33,36,00,000,38,1*6A,1774106301002
NMEA,$GPGSV,3,3,11,40,00,000,34,41,00,000,41,49,00,000,39,1*50,1774106301002
NMEA,$GPGSV,2,1,06,08,52,300,31,10,55,024,28,18,11,096,11,23,20,046,29,8*67,1774106301002
NMEA,$GPGSV,2,2,06,27,74,227,37,32,56,132,27,8*69,1774106301002
NMEA,$GLGSV,2,1,07,,00,000,26,66,56,188,41,79,06,280,26,88,60,040,35,1*7D,1774106301002
NMEA,$GLGSV,2,2,07,87,16,110,26,,00,000,28,72,13,028,12,1*47,1774106301002
NMEA,$GAGSV,3,1,10,02,27,278,40,04,40,072,25,06,48,108,30,09,43,145,28,7*78,1774106301002
NMEA,$GAGSV,3,2,10,10,31,074,24,11,52,046,28,12,11,086,18,25,25,218,30,7*76,1774106301002
NMEA,$GAGSV,3,3,10,34,05,286,27,36,46,319,37,7*71,1774106301002
NMEA,$GAGSV,3,1,10,02,27,278,35,04,40,072,20,06,48,108,24,09,43,145,31,1*74,1774106301002
NMEA,$GAGSV,3,2,10,10,31,074,27,11,52,046,15,12,11,086,16,25,25,218,25,1*77,1774106301002
NMEA,$GAGSV,3,3,10,34,05,286,16,36,46,319,28,1*7B,1774106301002
NMEA,$GQGSV,1,1,01,05,00,000,33,1*51,1774106301002
NMEA,$GBGSV,4,1,13,60,30,115,26,48,00,000,37,47,00,000,31,35,42,318,43,1*71,1774106301002
NMEA,$GBGSV,4,2,13,30,22,123,33,29,72,095,30,22,13,214,24,20,58,047,38,1*74,1774106301002
NMEA,$GBGSV,4,3,13,19,66,201,40,13,27,039,29,08,16,040,24,05,46,138,29,1*71,1774106301002
NMEA,$GBGSV,4,4,13,02,28,111,28,1*47,1774106301002
NMEA,$GBGSV,2,1,06,19,66,201,34,20,58,047,29,22,13,214,21,29,72,095,25,5*7F,1774106301002
NMEA,$GBGSV,2,2,06,30,22,123,24,35,42,318,27,5*7E,1774106301002
NMEA,$GNGSA,A,3,02,08,10,16,18,23,27,32,,,,,0.7,0.4,0.5,1*37,1774106301017
NMEA,$PSSGR,GSA,A,3,08,10,23,27,32,,,,,,,,0.7,0.4,0.5,1,8*4F,1774106301017
NMEA,$GNGSA,A,3,66,79,88,,,,,,,,,,0.7,0.4,0.5,2*3A,1774106301017
NMEA,$GNGSA,A,3,02,04,06,09,10,11,25,34,36,,,,0.7,0.4,0.5,3*38,1774106301017
NMEA,$PSSGR,GSA,A,3,302,304,306,309,310,325,336,,,,,,0.7,0.4,0.5,3,1*71,1774106301017
NMEA,$GNGSA,A,3,08,13,19,20,22,29,30,35,60,,,,0.7,0.4,0.5,4*3A,1774106301017
NMEA,$PSSGR,GSA,A,3,219,220,222,229,230,235,,,,,,,0.7,0.4,0.5,4,5*4F,1774106301017
NMEA,$GNVTG,274.7,T,269.5,M,14.6,N,27.1,K,A*34,1774106301017
NMEA,$GNDTM,W84,,0000.000000,N,00000.000000,E,0.000,W84*41,1774106301017
